City_ID,City,Lat,Lng,Max Temp,Humidity,Cloudiness,Wind Speed,Country,Date
0,port-aux-francais,-49.35,70.2167,8.45,90,99,20.34,TF,1683871428
1,grytviken,-54.2811,-36.5092,-3.91,68,1,2.23,GS,1683871158
2,waitangi,-43.9535,-176.5597,11.1,65,70,13.45,NZ,1683871428
3,ilulissat,69.2167,-51.1,-2.99,86,100,4.12,GL,1683871429
4,edinburgh of the seven seas,-37.0676,-12.3116,17.21,89,94,12.65,SH,1683871429
5,puerto natales,-51.7236,-72.4875,6.65,76,76,4.35,CL,1683871430
6,hawaiian paradise park,19.5933,-154.9731,21.69,97,88,2.1,US,1683871430
7,kodiak,57.79,-152.4072,5.73,87,100,6.17,US,1683871430
8,yemva,62.59,50.8594,14.9,55,95,3.61,RU,1683871431
9,uturoa,-16.7333,-151.4333,24.66,90,100,9.59,PF,1683871431
10,eqbaliyeh,35.3022,51.5358,26.9,16,52,4.35,IR,1683871432
11,blackmans bay,-43.0167,147.3167,15.41,56,46,2.67,AU,1683871398
12,tiksi,71.6872,128.8694,-9.41,78,88,7.37,RU,1683871432
13,adamstown,-25.066,-130.1015,22.39,63,100,7.8,PN,1683871221
14,invercargill,-46.4,168.35,8.34,95,83,1.34,NZ,1683871433
15,gamba,-2.65,10.0,25.35,94,86,2.31,GA,1683871433
16,asia,9.5506,122.5164,29.69,72,100,2.62,PH,1683871434
17,port mathurin,-19.6833,63.4167,25.53,77,66,9.43,MU,1683871435
18,el calafate,-50.3408,-72.2768,5.91,85,35,5.67,AR,1683871435
19,iskateley,67.6803,53.1512,0.76,100,100,3.0,RU,1683871435
20,talnakh,69.4865,88.3972,-12.66,76,37,4.0,RU,1683871436
21,bilibino,68.0546,166.4372,1.13,99,100,1.3,RU,1683871436
22,nelson bay,-32.7167,152.15,21.03,76,0,4.47,AU,1683871437
23,puerto ayora,-0.7393,-90.3518,24.75,100,28,2.7,EC,1683871437
24,aksu,41.1231,80.2644,27.31,6,22,4.17,CN,1683871437
25,hermanus,-34.4187,19.2345,10.45,77,67,7.49,ZA,1683871438
26,nemuro,43.3236,145.575,7.05,77,7,3.65,JP,1683871204
27,sabha,27.0377,14.4283,21.84,42,67,6.43,LY,1683871439
28,callao,-12.0667,-77.15,22.16,73,100,4.63,PE,1683871206
29,princeville,45.7668,-61.2985,3.82,95,100,2.06,CA,1683871439
30,namibe,-15.1961,12.1522,22.39,75,22,2.66,AO,1683871440
31,pombas,17.1503,-25.0201,21.88,81,73,5.04,CV,1683871440
32,togitsu,32.8333,129.85,23.99,53,75,8.23,JP,1683871440
33,whitehorse,60.7161,-135.0538,11.43,41,75,2.57,CA,1683871441
34,jamestown,42.097,-79.2353,14.8,72,0,1.54,US,1683871030
35,butte,39.6499,-121.5677,18.12,58,8,2.5,US,1683871273
36,jiuquan,39.7432,98.5174,24.11,7,2,3.75,CN,1683871442
37,yellowknife,62.456,-114.3525,11.98,50,40,2.57,CA,1683871279
38,albany,42.6001,-73.9662,14.67,71,56,0.89,US,1683871201
39,nouadhibou,20.931,-17.0347,17.99,100,75,7.2,MR,1683871443
40,huayin,34.5675,110.0921,27.67,25,69,3.69,CN,1683871444
41,ushuaia,-54.8,-68.3,7.81,76,100,6.17,AR,1683871444
42,nova sintra,14.8667,-24.7167,19.56,84,10,8.61,CV,1683871445
43,conception bay south,47.4999,-52.9981,2.08,73,55,2.51,CA,1683871273
44,la passe,45.5549,-0.8967,11.66,85,79,2.49,FR,1683871446
45,petropavlovsk-kamchatsky,53.0452,158.6483,5.33,70,75,2.0,RU,1683871446
46,minas de marcona,-15.2119,-75.1103,13.51,90,37,3.48,PE,1683871447
47,ust-nera,64.5667,143.2,5.01,57,99,1.62,RU,1683871447
48,yarmolyntsi,49.1924,26.8373,9.84,65,29,4.12,UA,1683871447
49,lavrio,37.7145,24.0565,17.86,65,39,7.63,GR,1683871203
50,west island,-12.1568,96.8225,29.99,79,75,6.17,CC,1683871448
51,papatowai,-46.5619,169.4708,10.9,91,99,3.84,NZ,1683871449
52,constantia,44.1833,28.65,12.61,54,81,5.99,RO,1683871204
53,atafu village,-8.5421,-172.5159,28.77,75,28,5.36,TK,1683871451
54,borogontsy,62.6683,131.1683,5.85,47,100,2.28,RU,1683871452
55,bethel,41.3712,-73.414,15.78,76,0,2.06,US,1683871452
56,fale old settlement,-9.3852,-171.2468,28.81,75,36,5.94,TK,1683871453
57,east london,-33.0153,27.9116,15.52,100,100,5.66,ZA,1683871453
58,cidreira,-30.1811,-50.2056,16.58,69,92,3.11,BR,1683871453
59,thompson,55.7435,-97.8558,11.09,50,20,6.17,CA,1683871358
60,longyearbyen,78.2186,15.6401,-5.09,74,75,5.14,SJ,1683871454
61,puerto baquerizo moreno,-0.9,-89.6,25.87,88,58,3.73,EC,1683871455
62,es castell,39.8795,4.2854,14.38,88,20,1.54,ES,1683871455
63,bushehr,28.9684,50.8385,30.05,45,20,4.12,IR,1683871456
64,afaahiti,-17.75,-149.2833,23.93,91,100,11.22,PF,1683871456
65,macas,-2.3167,-78.1167,20.53,97,100,1.18,EC,1683871234
66,haiku-pauwela,20.9219,-156.3051,23.36,63,40,5.14,US,1683871457
67,novyy urgal,51.0736,132.5642,22.72,22,77,4.13,RU,1683871458
68,portland,45.5234,-122.6762,18.02,68,20,0.89,US,1683871458
69,sturgeon bay,44.8342,-87.377,18.99,51,0,2.57,US,1683871211
70,guarapari,-20.6667,-40.4975,21.61,90,100,2.38,BR,1683871358
71,guerrero negro,27.9769,-114.0611,14.58,82,43,9.38,MX,1683871460
72,tulagi,-9.0996,160.1476,28.96,78,42,9.04,SB,1683871460
73,waingapu,-9.6567,120.2641,28.47,60,62,7.16,ID,1683871460
74,kota belud,6.351,116.4305,31.55,63,34,3.06,MY,1683871461
75,beihai,21.4833,109.1,21.75,89,100,6.87,CN,1683871462
76,toshbuloq,40.9234,71.5721,28.45,26,71,2.06,UZ,1683871462
77,aasiaat,68.7098,-52.8699,-5.38,96,100,3.16,GL,1683871462
78,kupang,-10.1667,123.5833,31.32,58,20,8.23,ID,1683871463
79,benguela,-12.5763,13.4055,25.04,81,31,1.68,AO,1683871463
80,happy valley-goose bay,53.3168,-60.3315,0.17,59,20,1.54,CA,1683871209
81,peace river,56.2501,-117.286,16.17,55,75,4.63,CA,1683871341
82,darab,28.7519,54.5444,31.44,14,9,2.4,IR,1683871464
83,gulf shores,30.246,-87.7008,22.25,60,75,3.09,US,1683871465
84,abu al matamir,30.9102,30.1744,18.27,55,0,5.95,EG,1683871465
85,mount gambier,-37.8333,140.7667,14.89,56,5,2.59,AU,1683871455
86,stanley,54.868,-1.6985,8.77,95,100,4.63,GB,1683871466
87,villa de reyes,21.8,-100.9333,20.09,30,0,0.6,MX,1683871466
88,margaret river,-33.95,115.0667,18.0,56,93,6.39,AU,1683871467
89,kiziltepe,37.1933,40.585,26.2,36,75,3.6,TR,1683871467
90,chatham,51.3789,0.5279,11.17,64,89,3.13,GB,1683871258
91,wailua homesteads,22.0669,-159.378,22.24,86,75,5.66,US,1683871468
92,sivrihisar,39.4504,31.5341,12.84,82,100,1.6,TR,1683871468
93,la'ie,21.6477,-157.9253,23.98,75,42,1.34,US,1683871469
94,georgetown,5.4112,100.3354,34.97,66,20,4.12,MY,1683871429
95,enewetak,11.3474,162.3373,27.65,83,67,6.88,MH,1683871470
96,leh,34.1667,77.5833,7.36,19,66,0.59,IN,1683871470
97,porto novo,6.4965,2.6036,28.9,85,49,1.09,BJ,1683871471
98,elliot lake,46.3834,-82.6331,12.14,95,39,1.93,CA,1683871367
99,tolanaro,-25.0319,46.9987,25.04,83,40,8.23,MG,1683871471
100,lerwick,60.1545,-1.1494,7.0,84,0,2.7,GB,1683871472
101,shache,38.4167,77.2406,26.53,7,95,1.36,CN,1683871472
102,harper,4.375,-7.7169,27.13,84,98,2.28,LR,1683871472
103,olonkinbyen,70.9221,-8.7187,0.71,93,74,8.21,SJ,1683871473
104,mbanza-ngungu,-5.25,14.8667,21.1,90,87,0.95,CD,1683871473
105,bolivar,37.6145,-93.4105,20.63,95,98,4.03,US,1683871474
106,smithers,54.7804,-127.1743,14.18,38,75,2.06,CA,1683871262
107,port augusta,-32.5,137.7667,19.8,48,5,5.81,AU,1683871475
108,al bardiyah,31.7561,25.0865,19.4,67,0,6.14,LY,1683871475
109,pitimbu,-7.4706,-34.8086,25.33,80,51,2.95,BR,1683871475
110,otjiwarongo,-20.4637,16.6477,17.24,29,96,3.56,NA,1683871476
111,amahai,-3.3333,128.9167,25.87,92,98,3.0,ID,1683871476
112,holmsund,63.706,20.3641,12.97,57,0,2.06,SE,1683871477
113,st. john's,47.5649,-52.7093,2.21,72,20,2.24,CA,1683871259
114,college,64.8569,-147.8028,14.18,50,75,2.57,US,1683871477
115,selfoss,63.9331,-20.9971,8.91,98,100,7.3,IS,1683871478
116,utrik,11.2278,169.8474,27.32,83,66,7.37,MH,1683871478
117,dryden,49.7833,-92.7503,12.16,87,75,1.54,CA,1683871331
118,ponta pora,-22.5361,-55.7256,11.32,77,52,1.68,BR,1683871479
119,ancud,-41.8697,-73.8203,12.32,97,100,3.9,CL,1683871240
120,severo-yeniseyskiy,60.3725,93.0408,0.81,72,99,4.75,RU,1683871480
121,jining,35.405,116.5814,28.79,27,43,5.5,CN,1683871221
122,moyynkum,44.2914,72.9469,30.33,21,100,2.82,KZ,1683871481
123,yuzhno-kurilsk,44.0306,145.8556,7.38,65,39,1.14,RU,1683871482
124,acapulco de juarez,16.8634,-99.8901,26.06,80,89,0.95,MX,1683871235
125,inhambane,-23.865,35.3833,20.99,94,20,0.0,MZ,1683871483
126,freeport,40.6576,-73.5832,21.21,65,0,4.63,US,1683871416
127,port elizabeth,-33.918,25.5701,14.62,84,20,5.14,ZA,1683871305
128,eenhana,-17.4667,16.3333,15.9,43,8,2.56,NA,1683871486
129,howrah,22.5892,88.3103,34.0,66,40,3.6,IN,1683871486
130,bahia de kino,28.8333,-111.9333,22.63,38,8,1.67,MX,1683871487
131,marquette,46.5333,-87.6335,12.65,84,99,0.45,US,1683871488
132,tamandare,-8.7597,-35.1047,24.69,82,37,1.83,BR,1683871488
133,praia da vitoria,38.7333,-27.0667,16.53,100,75,2.46,PT,1683871488
134,embi,48.8264,58.1442,19.54,57,99,5.07,KZ,1683871489
135,maxixe,-23.8597,35.3472,20.9,94,20,0.0,MZ,1683871290
136,jawhar,2.7809,45.5005,30.62,54,20,7.03,SO,1683871490
137,le port,-20.9373,55.2919,28.0,82,72,1.69,RE,1683871490
138,kerikeri,-35.2268,173.9474,13.28,75,7,2.3,NZ,1683871316
139,mejit,10.2753,170.8646,27.37,82,87,7.6,MH,1683871491
140,huarmey,-10.0681,-78.1522,22.28,86,100,3.27,PE,1683871492
141,codo,-4.4553,-43.8856,22.93,95,43,1.06,BR,1683871492
142,santa catarina mita,14.45,-89.75,22.28,87,60,1.72,GT,1683871492
143,ashland,40.8167,-82.2665,15.3,79,59,1.92,US,1683871493
144,wichita falls,33.9137,-98.4934,24.08,78,0,7.2,US,1683871372
145,souppes-sur-loing,48.183,2.7352,10.71,94,99,2.95,FR,1683871494
146,anastasiyevskaya,45.2158,37.8926,15.27,63,7,3.26,RU,1683871494
147,kailua-kona,19.6406,-155.9956,25.98,85,20,4.63,US,1683871495
148,ruteng,-8.6136,120.4721,23.19,60,39,0.89,ID,1683871495
149,punta arenas,-53.15,-70.9167,7.06,65,20,8.23,CL,1683871331
150,port blair,11.6667,92.75,29.87,74,97,9.94,IN,1683871496
151,ulladulla,-35.35,150.4667,18.76,62,30,2.81,AU,1683871359
152,belyy yar,53.6039,91.3903,12.94,54,0,8.0,RU,1683871497
153,keflavik,64.0049,-22.5624,6.95,93,100,1.54,IS,1683871498
154,balaklava,44.5,33.6,13.34,45,41,0.86,UA,1683871498
155,empalme,27.9667,-110.8167,23.4,32,0,1.7,MX,1683871264
156,bangar,16.8936,120.4243,31.73,65,74,3.29,PH,1683871499
157,carauari,-4.8828,-66.8958,22.31,99,100,0.34,BR,1683871499
158,karbala,32.616,44.0249,35.02,11,0,5.99,IQ,1683871500
159,xichang,27.8964,102.2634,19.11,48,97,1.49,CN,1683871500
160,winnemucca,40.973,-117.7357,12.03,50,0,2.57,US,1683871500
161,hadibu,12.65,54.0333,29.74,66,98,0.75,YE,1683871501
162,fallon,39.4735,-118.7774,16.07,33,0,5.14,US,1683871501
163,berdigestyakh,62.0989,126.6992,6.23,34,100,2.6,RU,1683871502
164,celestun,20.8667,-90.4,28.46,69,22,7.24,MX,1683871502
165,akureyri,65.6835,-18.0878,9.96,66,75,2.57,IS,1683871504
166,ulsteinvik,62.3432,5.8487,12.09,95,100,0.45,NO,1683871505
167,yeed,4.55,43.0333,27.45,60,66,7.96,SO,1683871505
168,badger,64.8,-147.5333,14.14,49,40,2.57,US,1683871506
169,cabo san lucas,22.8909,-109.9124,23.12,72,36,6.06,MX,1683871203
170,anadyr,64.75,177.4833,2.28,80,0,2.0,RU,1683871507
171,avarua,-21.2078,-159.775,25.03,83,75,6.69,CK,1683871507
172,norresundby,57.0483,9.9352,13.92,74,11,3.6,DK,1683871332
173,qaqortoq,60.7167,-46.0333,1.6,88,100,2.31,GL,1683871508
174,bredasdorp,-34.5322,20.0403,12.26,73,76,7.03,ZA,1683871508
175,itoman,26.1247,127.6694,25.22,62,40,5.14,JP,1683871509
176,nevada,39.2502,-116.7512,8.75,39,33,2.32,US,1683871509
177,porto barra do ivinheima,-22.9667,-53.6667,11.74,80,4,1.48,BR,1683871509
178,johnstown,40.3267,-78.922,14.69,77,52,1.03,US,1683871374
179,urengoy,65.9667,78.3667,-7.94,77,88,4.85,RU,1683871510
180,zhelezinka,53.54,75.3072,15.45,38,27,4.55,KZ,1683871511
181,naze,28.3667,129.4833,22.51,63,17,4.01,JP,1683871511
182,yaren,-0.5472,166.916,28.81,79,98,5.7,NR,1683871512
183,lagunas,-5.2269,-75.6753,21.79,99,47,0.52,PE,1683871512
184,karratha,-20.7377,116.8463,29.68,20,0,7.15,AU,1683871512
185,leo,11.1,-2.1,28.48,53,98,4.56,BF,1683871513
186,north bend,43.4065,-124.2243,12.31,82,100,3.09,US,1683871474
187,lihue,21.9789,-159.3672,22.58,86,75,5.66,US,1683871514
188,kaga bandoro,6.9896,19.1874,24.59,83,99,1.72,CF,1683871514
189,shibin al kawm,30.5526,31.009,23.39,48,0,4.66,EG,1683871515
190,lebu,-37.6167,-73.65,12.9,89,100,1.19,CL,1683871347
191,kapa'a,22.0752,-159.319,22.99,86,75,5.66,US,1683871515
192,susuman,62.7833,148.1667,4.76,76,100,1.53,RU,1683871516
193,ixtapa,20.7,-105.2,25.13,64,7,1.03,MX,1683871340
194,touros,-5.1989,-35.4608,25.49,83,97,3.59,BR,1683871517
195,zambezi,-13.5432,23.1047,15.92,51,0,2.95,ZM,1683871519
196,al jahra',29.3375,47.6581,34.19,12,55,3.13,KW,1683871519
197,biltine,14.5333,20.9167,31.16,40,83,1.24,TD,1683871520
198,udachny,66.4167,112.4,6.36,41,100,7.39,RU,1683871521
199,barah,13.7,30.3667,33.92,27,16,3.69,SD,1683871521
200,puerto lempira,15.2667,-83.7667,26.19,87,93,3.47,HN,1683871521
201,hartshill,52.542,-1.5201,9.99,91,100,4.63,GB,1683871522
202,moose jaw,50.4001,-105.5344,11.14,87,100,3.09,CA,1683871266
203,ribeira grande,38.5167,-28.7,15.43,87,44,3.58,PT,1683871523
204,ar raqqah,35.95,39.0167,30.06,17,100,8.56,SY,1683871523
205,natal,-5.795,-35.2094,25.12,88,40,2.06,BR,1683871360
206,ati,13.2154,18.3353,31.74,41,83,1.67,TD,1683871524
207,kapit,2.0167,112.9333,37.03,40,17,0.85,MY,1683871524
208,adrar,20.5022,-10.0711,26.69,21,16,3.79,MR,1683871525
209,isafjordur,66.0755,-23.124,4.71,98,100,2.63,IS,1683871525
210,sorong,-0.8833,131.25,29.61,71,61,3.23,ID,1683871526
211,oriximina,-1.7656,-55.8661,23.13,97,90,0.48,BR,1683871526
212,eraan,9.0629,117.7016,32.54,59,96,1.85,PH,1683871526
213,swakopmund,-22.6833,14.5333,14.47,88,100,2.68,NA,1683871527
214,yangambi,0.8102,24.4336,21.43,99,95,1.28,CD,1683871527
215,radviliskis,55.8167,23.5333,15.03,41,0,1.03,LT,1683871528
216,shenjiamen,29.9576,122.298,18.71,62,91,2.45,CN,1683871528
217,bloomfield,40.8068,-74.1854,21.47,56,0,2.57,US,1683871529
218,malabar,-33.9667,151.25,23.43,65,20,5.14,AU,1683871276
219,vadso,70.0744,29.7487,8.09,81,75,7.2,NO,1683871530
220,alice springs,-23.7,133.8833,22.75,16,0,6.69,AU,1683871531
221,nuuk,64.1835,-51.7216,0.34,86,75,8.23,GL,1683871531
222,pagar alam,-4.0167,103.2667,28.33,67,59,2.5,ID,1683871531
223,betio village,1.358,172.9211,30.02,79,100,5.9,KI,1683871532
224,nagqu,31.5,92.0,2.08,24,100,4.01,CN,1683871532
225,manakara,-22.1333,48.0167,23.94,85,92,1.81,MG,1683871533
226,klyuchi,52.2667,79.1667,16.59,28,96,3.16,RU,1683871533
227,san juan,-31.5375,-68.5364,17.34,50,47,2.95,AR,1683871428
228,port alfred,-33.5906,26.891,14.54,98,100,1.79,ZA,1683871534
229,kavieng,-2.5744,150.7967,26.21,89,100,5.68,PG,1683871534
230,luwuk,-0.9516,122.7875,27.7,86,100,2.26,ID,1683871535
231,belmonte,-15.8631,-38.8828,23.55,87,60,1.75,BR,1683871535
232,ierapetra,35.01,25.7353,18.41,60,32,5.81,GR,1683871535
233,turmalina,-17.2856,-42.73,18.41,84,98,0.76,BR,1683871536
234,iqaluit,63.7506,-68.5145,-8.15,93,75,1.54,CA,1683871331
235,sambava,-14.2667,50.1667,26.4,68,2,3.93,MG,1683871537
236,barbuletu,45.1333,25.3,10.31,58,98,3.05,RO,1683871537
237,dudinka,69.4058,86.1778,-12.43,89,77,6.81,RU,1683871537
238,kingston,17.997,-76.7936,26.53,86,20,1.54,JM,1683871538
239,sinabang,2.4803,96.3801,30.81,69,32,4.29,ID,1683871538
240,tura,25.5198,90.2201,37.1,24,84,1.44,IN,1683871539
241,bardai,11.65,7.2333,25.8,62,98,2.42,NG,1683871539
242,san carlos,9.6612,-68.5827,25.3,65,87,0.73,VE,1683871539
243,newman,37.3138,-121.0208,17.38,80,0,0.89,US,1683871540
244,le lavandou,43.137,6.366,17.12,63,0,2.57,FR,1683871476
245,new norfolk,-42.7826,147.0587,16.07,57,39,0.89,AU,1683871540
246,marica,-22.9194,-42.8186,20.95,86,50,2.75,BR,1683871495
247,kovdor,67.5662,30.4758,4.99,97,100,1.98,RU,1683871541
248,cill airne,52.05,-9.5167,8.29,98,52,1.42,IE,1683871363
249,angaur state,6.906,134.13,29.29,72,42,0.95,PW,1683871542
250,laurel,39.0993,-76.8483,17.83,87,0,0.45,US,1683871542
251,wotho,10.1657,166.0102,27.56,81,43,7.41,MH,1683871543
252,kokshetau,53.2775,69.3883,13.18,47,0,5.0,KZ,1683871543
253,suva,-18.1416,178.4415,26.71,74,40,2.06,FJ,1683871427
254,humboldt,40.6665,-123.9178,6.42,96,63,1.42,US,1683871259
255,laminusa,5.5549,120.9136,28.98,73,23,1.97,PH,1683871544
256,salug,8.1147,122.7833,30.55,70,82,0.86,PH,1683871544
257,codrington,-38.2667,141.9667,14.23,62,46,3.03,AU,1683871545
258,port hedland,-20.3167,118.5667,34.03,7,7,6.69,AU,1683871483
259,walvis bay,-22.9575,14.5053,14.53,94,100,5.66,NA,1683871546
260,kuching,1.55,110.3333,34.12,61,40,2.24,MY,1683871233
261,rongelap,11.1635,166.8941,27.57,83,63,7.69,MH,1683871546
262,ennis,52.8436,-8.9864,7.96,93,20,2.06,IE,1683871547
263,antigonish,45.6169,-61.9986,6.01,88,57,2.94,CA,1683871284
264,general conesa,-40.1,-64.4333,14.55,53,100,5.73,AR,1683871548
265,teguise,29.0605,-13.564,16.12,82,20,6.69,ES,1683871548
266,lorengau,-2.0226,147.2712,28.24,81,97,3.51,PG,1683871548
267,quellon,-43.1167,-73.6167,13.14,94,100,1.54,CL,1683871332
268,general acha,-37.377,-64.6043,11.13,87,74,4.76,AR,1683871549
269,sao joaquim,-28.2939,-49.9317,3.67,97,51,1.42,BR,1683871549
270,yerofey pavlovich,53.9667,121.9667,2.9,89,100,1.99,RU,1683871550
271,bichura,50.5881,107.6022,16.89,27,54,5.72,RU,1683871550
272,nyaunglebin,17.95,96.7333,30.21,64,100,2.14,MM,1683871551
273,acarau,-2.8856,-40.12,24.92,86,26,2.77,BR,1683871551
274,rundu,-17.9333,19.7667,16.09,39,5,1.77,NA,1683871552
275,kharp,66.8014,65.8081,-3.72,90,100,3.08,RU,1683871553
276,paita,-5.0892,-81.1144,24.17,80,54,5.0,PE,1683871554
277,malvan,16.0667,73.4667,31.4,62,66,3.83,IN,1683871555
278,mont-dore,-22.2833,166.5833,24.44,99,100,5.05,NC,1683871527
279,corinto,37.9407,22.9573,16.61,69,4,2.11,GR,1683871556
280,forster,-32.1667,152.5167,19.52,76,0,0.89,AU,1683871556
281,recife,-8.0539,-34.8811,28.02,65,75,1.54,BR,1683871557
282,raduzhny,62.0961,77.475,-2.7,46,95,4.31,RU,1683871557
283,kolonia,50.9333,6.95,13.36,90,100,2.57,DE,1683871558
284,acajutla,13.5928,-89.8275,27.72,79,1,3.07,SV,1683871558
285,bure,10.7,37.0667,23.94,26,74,1.02,ET,1683871559
286,lubang,13.8584,120.124,29.63,73,49,3.54,PH,1683871559
287,tenno,39.9,139.9667,18.5,55,3,4.03,JP,1683871560
288,priob'ye,62.5206,65.5964,9.35,37,100,2.41,RU,1683871560
289,mar del plata,-38.0023,-57.5575,10.61,87,0,2.06,AR,1683871561
290,bubaque,11.2833,-15.8333,26.14,71,100,6.4,GW,1683871561
291,manacapuru,-3.2997,-60.6206,23.44,97,100,1.68,BR,1683871561
292,langxiang,46.95,128.8833,22.62,19,100,3.42,CN,1683871562
293,tazovsky,67.4667,78.7,-11.44,81,66,4.23,RU,1683871562
294,vanimo,-2.6741,141.3028,29.26,77,72,3.43,PG,1683871563
295,sipalay,9.75,122.5,30.05,72,100,2.3,PH,1683871563
296,laguna,38.421,-121.4238,17.28,71,0,2.06,US,1683871563
297,bady bassitt,-20.9181,-49.4453,19.11,77,0,0.0,BR,1683871564
298,les cayes,18.2,-73.75,24.15,86,2,1.18,HT,1683871564
299,teknaf,20.8624,92.3058,29.43,75,100,6.81,BD,1683871565
300,san antonio de pale,-1.4014,5.6325,28.09,77,98,4.63,GQ,1683871380
301,viveiro,43.6623,-7.5934,13.46,83,65,4.62,ES,1683871566
302,colares,38.7992,-9.4469,14.38,76,0,7.15,PT,1683871566
303,coquimbo,-29.9533,-71.3436,12.85,100,100,1.03,CL,1683871206
304,mwandiga,-4.83,29.6581,20.66,88,75,0.0,TZ,1683871567
305,sierra grande,-41.606,-65.3557,12.72,59,100,1.34,AR,1683871567
306,okhotsk,59.3833,143.3,3.14,79,100,3.42,RU,1683871568
307,mitsamiouli,-11.3847,43.2844,27.36,71,41,2.52,KM,1683871568
308,karaton,-6.3424,106.1045,32.56,55,77,3.37,ID,1683871569
309,pescia,43.897,10.6904,15.91,90,28,6.26,IT,1683871570
310,zhangye,38.9342,100.4517,22.87,10,2,3.25,CN,1683871570
311,island harbour,50.724,-1.2758,11.75,95,21,2.68,GB,1683871570
312,faya-largeau,17.9257,19.1043,28.84,21,66,10.28,TD,1683871571
313,tibati,6.4667,12.6333,21.2,93,86,0.3,CM,1683871571
314,aioun,16.6614,-9.6149,29.91,10,65,2.24,MR,1683871572
315,saint-philippe,-21.3585,55.7679,27.77,78,97,5.34,RE,1683871572
316,wenling,28.3669,121.36,16.63,79,99,1.46,CN,1683871573
317,el granada,37.5027,-122.4694,13.37,85,100,5.14,US,1683871573
318,moquegua,-17.1956,-70.9353,18.75,46,74,0.34,PE,1683871574
319,rio grande,-32.035,-52.0986,14.92,61,31,2.9,BR,1683871574
320,bryne,58.7354,5.6477,9.97,98,100,2.57,NO,1683871575
321,arraial do cabo,-22.9661,-42.0278,21.45,81,55,5.35,BR,1683871310
322,kone,-21.0595,164.8658,24.14,67,100,3.12,NC,1683871576
323,linxia chengguanzhen,35.6003,103.2064,15.97,35,95,2.71,CN,1683871576
324,remire-montjoly,4.9167,-52.2667,23.02,100,100,1.54,GF,1683871577
325,huetamo de nunez,18.5833,-100.8833,29.02,59,75,1.69,MX,1683871577
326,genc,38.7507,40.5603,16.2,67,75,1.54,TR,1683871577
327,mumford,5.2618,-0.759,27.25,82,79,1.75,GH,1683871578
328,nileshwar,12.25,75.1,30.66,65,99,3.18,IN,1683871281
329,malango,-2.9627,119.9001,28.24,65,85,2.09,ID,1683871579
330,prince rupert,54.3161,-130.3201,13.05,60,100,8.23,CA,1683871513
331,balaipungut,1.05,101.2833,30.64,78,34,1.11,ID,1683871579
332,jalpan,21.2333,-99.4833,23.7,85,0,0.56,MX,1683871580
333,pacific grove,36.6177,-121.9166,12.82,87,0,2.06,US,1683871580
334,asubulaq,49.5583,83.0558,19.01,54,92,6.25,KZ,1683871581
335,attapeu,14.8,106.8333,28.21,85,93,1.75,LA,1683871581
336,hastings,50.8552,0.5729,11.62,53,80,7.47,GB,1683871582
337,san ignacio de velasco,-16.3667,-60.95,20.18,94,81,1.52,BO,1683871582
338,okondja,-0.6549,13.6753,23.47,92,98,0.45,GA,1683871582
339,kitimat,54.0524,-128.6534,15.21,67,100,1.52,CA,1683871583
340,manokwari,-0.8667,134.0833,28.39,79,64,3.25,ID,1683871583
341,hammerfest,70.6634,23.6821,5.25,100,75,5.66,NO,1683871584
342,maryville,35.7565,-83.9705,18.94,92,100,1.54,US,1683871584
343,vylkove,45.4021,29.586,13.88,57,43,4.49,UA,1683871585
344,kirensk,57.7853,108.1119,11.92,37,100,4.42,RU,1683871586
345,nema,57.5067,50.5011,13.55,51,2,3.2,RU,1683871587
346,ma'rib,15.4591,45.3253,28.65,26,39,2.6,YE,1683871588
347,mount pearl,47.5166,-52.7813,1.75,72,20,1.03,CA,1683871529
348,plastun,44.7561,136.2939,11.67,60,4,2.37,RU,1683871589
349,nassau,40.7507,-73.5829,21.04,63,0,0.45,US,1683871589
350,sola,-13.8833,167.55,27.8,75,89,12.26,VU,1683871590
351,lata,40.1629,-8.3327,11.62,78,2,1.9,PT,1683871590
352,sarmiento,-45.5882,-69.07,12.66,57,100,9.29,AR,1683871591
353,auki,-8.7676,160.7034,28.65,77,80,1.94,SB,1683871591
354,kokpekty,48.75,82.4,22.48,38,100,7.59,KZ,1683871591
355,cambria,35.5641,-121.0808,15.13,89,4,3.8,US,1683871592
356,krutinka,56.0055,71.5113,7.88,42,0,3.85,RU,1683871592
357,mandali,33.7499,45.5541,34.16,11,0,2.04,IQ,1683871593
358,kingscliff,-28.2667,153.5667,21.54,64,40,5.14,AU,1683871593
359,san francisco de la paz,14.9,-86.2,22.2,87,100,0.72,HN,1683871593
360,northam,51.0333,-4.2167,10.77,97,3,4.11,GB,1683871594
361,zeya,53.75,127.2667,15.77,66,100,4.23,RU,1683871594
362,paka,4.6374,103.4368,32.96,66,40,2.57,MY,1683871595
363,magdagachi,53.45,125.8,17.17,51,100,4.52,RU,1683871595
364,san luis de la loma,17.2706,-100.8939,26.94,80,99,0.93,MX,1683871595
365,sitka,57.0531,-135.33,11.94,54,100,5.66,US,1683871596
366,abadan,30.3392,48.3043,32.97,25,0,2.06,IR,1683871596
367,sogndal,61.2283,7.1003,12.21,76,0,0.0,NO,1683871597
368,louiseville,46.2559,-72.9415,17.99,63,100,4.12,CA,1683871474
369,miasskoye,55.2784,61.8905,12.49,47,73,4.56,RU,1683871597
370,ostersund,63.1792,14.6357,9.78,36,0,1.54,SE,1683871598
371,carnarvon,-24.8667,113.6333,25.12,56,0,5.45,AU,1683871599
372,poplar bluff,36.757,-90.3929,20.94,79,100,2.57,US,1683871599
373,olinda,-8.0089,-34.8553,27.85,65,75,1.54,BR,1683871599
374,birao,10.2849,22.7882,30.23,50,95,0.72,CF,1683871600
375,rahimah,26.7079,50.0619,36.12,45,24,0.99,SA,1683871600
376,bandar lampung,-5.4254,105.258,29.73,76,75,2.98,ID,1683871600
377,mujiayingzi,42.1167,118.7833,23.31,21,62,9.04,CN,1683871601
378,vorgashor,67.5833,63.95,-3.91,82,22,3.54,RU,1683871601
379,sept-iles,50.2001,-66.3821,5.0,91,0,2.06,CA,1683871467
380,fortuna,40.5982,-124.1573,11.31,95,100,0.0,US,1683871602
381,balikpapan,-1.2675,116.8289,31.55,74,20,2.57,ID,1683871602
382,tacuarembo,-31.7333,-55.9833,6.79,81,8,0.73,UY,1683871603
383,isangel,-19.55,169.2667,24.85,78,100,6.83,VU,1683871604
384,unai,-16.3575,-46.9061,20.26,70,81,0.66,BR,1683871341
385,mcfarland,35.678,-119.2293,20.25,67,0,0.0,US,1683871604
386,kourou,5.1552,-52.6478,23.03,92,97,2.56,GF,1683871605
387,luanda,-8.8368,13.2343,26.0,89,40,3.6,AO,1683871140
388,kapuskasing,49.4169,-82.4331,10.99,96,0,2.79,CA,1683871606
389,aldan,58.6031,125.3894,-1.82,96,100,4.04,RU,1683871606
390,decatur,39.8403,-88.9548,21.86,83,20,2.57,US,1683871607
391,phan rang-thap cham,11.5667,108.9833,31.93,63,100,4.1,VN,1683871403
392,trincomalee,8.5711,81.2335,31.62,68,100,9.02,LK,1683871607
393,macau,22.2006,113.5461,24.89,88,40,6.17,MO,1683871608
394,kihancha,-1.1838,34.6262,19.78,80,45,3.99,KE,1683871608
395,ouani,-12.1322,44.4258,27.31,71,54,0.94,KM,1683871609
396,luderitz,-26.6481,15.1594,14.37,75,97,12.01,NA,1683871610
397,spanish wells,26.323,-81.7957,24.99,57,0,3.09,US,1683871610
398,mahanoro,-19.9,48.8,25.07,74,88,1.42,MG,1683871610
399,puerto san jose,13.9256,-90.8244,28.44,74,22,2.88,GT,1683871611
400,aykhal,66.0,111.5,1.05,100,100,8.06,RU,1683871611
401,noosa heads,-26.3833,153.15,21.73,62,6,7.54,AU,1683871612
402,sena madureira,-9.0656,-68.6569,21.76,96,83,0.77,BR,1683871612
403,halifax,44.6453,-63.5724,6.0,93,11,1.03,CA,1683871017
404,san pedro de ycuamandiyu,-24.0917,-57.0764,11.99,83,5,1.75,PY,1683871613
405,mugia,43.1041,-9.2179,12.73,78,36,7.09,ES,1683871613
406,plettenberg bay,-34.0527,23.3716,12.83,90,100,2.18,ZA,1683871240
407,alofi,-19.0595,-169.9187,26.34,75,44,6.9,NU,1683871614
408,arhribs,36.7936,4.3116,14.85,75,41,1.59,DZ,1683871614
409,grande prairie,55.1667,-118.8027,14.1,51,75,3.6,CA,1683871517
410,bermejo,-32.8833,-68.8,15.32,58,28,1.48,AR,1683871615
411,obock,12.25,43.0833,26.49,66,53,5.58,DJ,1683871615
412,drawsko pomorskie,53.5306,15.8097,14.94,50,6,1.34,PL,1683871616
413,melekeok village,7.4957,134.6367,29.31,79,75,3.09,PW,1683871616
414,ketchikan,55.3422,-131.6461,10.99,87,100,3.09,US,1683871617
415,muana,-1.5283,-49.2167,23.45,96,100,1.41,BR,1683871617
416,mount isa,-20.7333,139.5,28.87,23,0,6.17,AU,1683871617
417,copiapo,-27.3667,-70.3333,11.83,64,3,0.62,CL,1683871006
418,gadzhiyevo,69.2551,33.3362,3.61,99,100,5.47,RU,1683871618
419,san patricio,28.017,-97.5169,27.13,95,10,5.49,US,1683871619
420,colchester,51.8892,0.9042,10.98,89,100,6.1,GB,1683871593
421,ol'gino,59.837,29.9227,15.97,49,0,5.0,RU,1683871619
422,victoria de durango,24.0333,-104.6667,13.66,38,37,3.46,MX,1683871620
423,harstad,68.799,16.5293,6.75,100,99,5.81,NO,1683871621
424,emerald,-23.5333,148.1667,25.19,43,84,5.75,AU,1683871622
425,mermoz boabab,14.7065,-17.4758,22.31,88,60,6.48,SN,1683871623
426,wenchang,30.904,118.4887,22.72,55,64,2.42,CN,1683871623
427,kuanda,56.3161,116.0806,8.0,36,71,2.34,RU,1683871624
428,dali,25.7,100.1833,27.0,22,90,2.52,CN,1683871624
429,prado,-17.3411,-39.2208,21.79,89,79,1.68,BR,1683871336
430,manggar,-2.8833,108.2667,30.78,70,63,4.06,ID,1683871625
431,toliara,-23.35,43.6667,25.94,68,7,1.93,MG,1683871626
432,den burg,53.0542,4.7972,12.76,99,100,6.69,NL,1683871626
433,tlahualilo de zaragoza,26.1167,-103.45,24.18,9,42,2.47,MX,1683871626
434,clovis,36.8252,-119.7029,19.46,59,1,0.45,US,1683871627
435,ko pha ngan,9.7578,100.0291,26.97,66,72,3.21,TH,1683871627
436,bel ombre,-4.6167,55.4167,28.03,80,75,6.12,SC,1683871628
437,inverell,-29.7833,151.1167,23.7,42,4,1.79,AU,1683871302
438,nambucca heads,-30.65,153.0,21.2,68,4,3.44,AU,1683871629
439,yemel'yanovo,56.1681,92.6767,14.49,23,0,8.0,RU,1683871629
440,al mijlad,11.0333,27.7333,32.97,37,38,3.69,SD,1683871629
441,nizhnesortymskiy,62.4397,71.7603,-2.26,66,47,1.85,RU,1683871630
442,arteche,12.2645,125.4048,28.73,78,72,3.53,PH,1683871630
443,watsa,3.0372,29.5355,20.56,89,98,0.94,CD,1683871630
444,alvand,36.3187,49.1678,17.97,42,87,1.47,IR,1683871631
445,bastrop,32.7562,-91.8724,20.82,98,100,0.0,US,1683871631
446,nizhniy odes,63.6445,54.856,4.55,97,100,2.98,RU,1683871632
447,mugumu,-1.85,34.7,18.33,81,34,2.5,TZ,1683871632
448,sale,34.0389,-6.8166,15.42,100,85,2.06,MA,1683871633
449,kolonia town,6.964,158.206,29.1,71,75,2.75,FM,1683871633
450,hithadhoo,-0.6,73.0833,28.61,75,100,7.17,MV,1683871634
451,shinkafi,13.0753,6.5105,29.44,44,100,2.98,NG,1683871634
452,pangody,65.85,74.4859,-8.91,83,89,2.86,RU,1683871634
453,pechora,65.1472,57.2244,1.01,99,100,5.35,RU,1683871635
454,sterling,39.0062,-77.4286,17.45,85,0,0.45,US,1683871069
455,pisco,-13.7,-76.2167,20.03,77,100,1.54,PE,1683871636
456,broken hill,-31.95,141.4333,19.96,25,58,2.55,AU,1683871637
457,saipan,15.1355,145.701,33.39,100,40,3.58,MP,1683871168
458,kuqa,41.7278,82.9364,27.83,5,37,6.24,CN,1683871638
459,hamilton,39.1834,-84.5333,20.55,89,0,0.0,US,1683871554
460,senanga,-16.1167,23.2667,17.67,44,0,2.75,ZM,1683871639
461,chonchi,-42.6128,-73.8092,12.84,99,100,0.52,CL,1683871639
462,nagato,34.3833,131.2,20.96,60,100,1.52,JP,1683871640
463,vila velha,-20.3297,-40.2925,22.97,96,75,2.06,BR,1683871424
464,kruisfontein,-34.0033,24.7314,13.32,82,100,8.61,ZA,1683871640
465,okap,19.7578,-72.2042,26.32,75,44,1.65,HT,1683871641
466,korla,41.7597,86.1469,25.68,9,82,6.36,CN,1683871642
467,hasaki,35.7333,140.8333,19.56,51,67,3.85,JP,1683871642
468,siyabuswa,-25.1132,29.0445,17.92,37,5,1.42,ZA,1683871642
469,tarko-sale,64.9225,77.785,-7.17,73,87,4.97,RU,1683871643
470,puerto deseado,-47.7503,-65.8938,11.69,53,94,6.56,AR,1683871635
471,ruston,32.5232,-92.6379,20.88,100,75,3.09,US,1683871644
472,la gi,10.6667,107.7833,31.26,65,97,4.6,VN,1683871644
473,presque isle,46.6811,-68.0159,11.13,78,0,1.34,US,1683871462
474,baise city,23.8997,106.6133,28.52,99,77,0.87,CN,1683871645
475,douentza,14.9951,-2.9517,30.18,13,97,2.22,ML,1683871646
476,beipiao,41.7919,120.7792,27.8,15,38,6.33,CN,1683871646
477,cranbrook,49.4999,-115.7688,12.91,58,20,2.06,CA,1683871445
478,bodhan,18.6667,77.9,40.18,12,48,1.87,IN,1683871647
479,mahdia,35.5047,11.0622,17.97,81,84,4.84,TN,1683871647
480,cesme,38.3228,26.3064,14.84,77,40,3.6,TR,1683871648
481,mukalla,14.5425,49.1242,30.69,61,57,2.96,YE,1683871648
482,nurmes,63.5421,29.1397,13.18,48,9,3.6,FI,1683871649
483,muncar,-8.4333,114.3333,28.66,75,53,4.41,ID,1683871649
484,linhares,-19.3911,-40.0722,21.56,91,92,1.65,BR,1683871649
485,labytnangi,66.6572,66.4183,-3.91,91,100,2.55,RU,1683871398
486,sopur,34.3,74.4667,20.5,28,88,0.6,IN,1683871650
487,caluula,11.9661,50.7569,29.41,75,80,4.37,SO,1683871651
488,thal,35.4791,72.2439,19.89,37,97,0.89,PK,1683871651
489,kasongo,-4.45,26.6667,23.25,79,94,1.35,CD,1683871652
490,sinmak,38.4167,126.2333,22.38,33,100,3.04,KP,1683871652
491,punata,-17.55,-65.8333,13.36,74,67,0.86,BO,1683871652
492,nizhniy kuranakh,58.8353,125.4869,0.0,96,100,3.29,RU,1683871653
493,kavaratti,10.5669,72.642,29.5,69,96,2.22,IN,1683871653
494,alo,7.4178,6.7371,25.7,91,100,0.96,NG,1683871655
495,bakchar,57.0186,82.0711,7.41,35,61,4.09,RU,1683871655
496,beterou,9.1992,2.2586,24.23,93,56,1.52,BJ,1683871656
497,wagini,12.6878,7.1958,27.42,54,99,1.73,NG,1683871657
498,fort st. john,56.2499,-120.8529,11.58,61,57,1.2,CA,1683871635
499,queenstown,-31.8976,26.8753,13.11,77,100,1.71,ZA,1683871658
500,howard springs,-12.497,131.047,31.01,26,35,3.47,AU,1683871658
501,jhalrapatan,24.55,76.1667,40.25,6,0,0.31,IN,1683871161
502,kalmunai,7.4167,81.8167,31.93,63,88,1.28,LK,1683871659
503,kampene,-3.6,26.6667,22.32,92,99,0.83,CD,1683871659
504,zagora,30.3484,-5.8365,23.51,22,0,2.04,MA,1683871660
505,vilyuysk,63.7553,121.6247,8.2,35,0,1.92,RU,1683871660
506,san jeronimito,17.55,-101.3333,26.91,81,97,1.57,MX,1683871661
507,ebon,4.582,168.6964,27.38,82,100,5.9,MH,1683871661
508,burutu,5.3509,5.5076,26.64,86,78,1.23,NG,1683871662
509,ribeira brava,32.65,-17.0667,19.45,71,33,4.8,PT,1683871662
510,pampa del infierno,-26.5052,-61.1744,12.72,86,4,2.0,AR,1683871662
511,karkira,36.9292,6.5856,15.39,88,35,1.96,DZ,1683871663
512,yantzaza,-3.8278,-78.7594,19.02,99,95,0.36,EC,1683871663
513,tralee,52.2704,-9.7026,8.42,95,32,1.12,IE,1683871664
514,sandnessjoen,66.0217,12.6316,9.29,90,75,3.6,NO,1683871664
515,balabac,7.9868,117.0645,30.27,68,62,4.61,PH,1683871664
516,tarawa,1.419,172.984,30.05,74,20,4.12,KI,1683871665
517,tirumullaivasal,11.2333,79.8333,34.41,52,99,3.25,IN,1683871665
518,tinogasta,-28.0632,-67.5649,14.31,77,6,0.23,AR,1683871666
519,laojunmiao,39.8333,97.7333,19.21,8,3,5.59,CN,1683871634
520,vila franca do campo,37.7167,-25.4333,16.23,89,95,1.38,PT,1683871666
521,agat village,13.3886,144.6585,31.52,75,40,3.6,GU,1683871667
522,kosonsoy,41.2561,71.5508,26.31,20,77,3.93,UZ,1683871667
523,boulsa,12.6675,-0.5758,30.82,43,89,5.84,BF,1683871667
524,necochea,-38.5473,-58.7368,8.15,72,35,4.84,AR,1683871668
525,maua,-23.6678,-46.4614,16.87,90,96,2.27,BR,1683871668
526,al ghayzah,16.2079,52.176,29.98,59,6,2.15,YE,1683871669
527,stettler,52.3168,-112.7186,9.73,83,72,1.05,CA,1683871669
528,tocopilla,-22.092,-70.1979,18.42,72,19,0.56,CL,1683871077
529,suoyarvi,62.0833,32.35,15.01,43,13,3.32,RU,1683871670
530,laramie,41.3114,-105.5911,6.54,92,100,7.72,US,1683871670
531,flin flon,54.7682,-101.865,11.64,48,100,3.53,CA,1683871671
532,nguigmi,14.2495,13.1092,27.3,21,88,4.6,NE,1683871671
533,ascension,30.2169,-90.9001,26.0,93,100,3.09,US,1683871671
534,labrador city,52.9463,-66.9114,4.96,54,48,2.25,CA,1683871672
535,richards bay,-28.783,32.0377,21.56,81,62,4.33,ZA,1683871672
536,kamloops,50.6665,-120.3192,16.55,41,20,3.6,CA,1683871571
537,yakeshi,49.2833,120.7333,16.58,49,94,6.9,CN,1683871673
538,ust'-kulom,61.6864,53.6902,11.35,64,100,2.15,RU,1683871673
539,baikonur,45.6167,63.3167,29.27,22,5,3.7,KZ,1683871674
540,aoulef,26.9667,1.0833,28.28,14,74,2.75,DZ,1683871674
541,iwaki,37.05,140.8833,18.76,53,56,2.68,JP,1683871674
542,palikir - national government center,6.9248,158.1611,28.49,72,76,2.78,FM,1683871675
543,amga,60.8953,131.9608,6.35,36,100,2.61,RU,1683871675
544,sitangkai,4.6628,119.3928,29.06,70,25,1.03,PH,1683871676
545,kozarska dubica,45.1767,16.8094,13.06,95,100,0.53,BA,1683871676
546,kontiolahti,62.7602,29.8471,14.97,38,0,3.09,FI,1683871676
547,uzice,43.8586,19.8488,12.06,90,80,2.07,RS,1683871677
548,peniche,39.3558,-9.3811,13.49,83,0,11.21,PT,1683871677
549,dolores,-36.3132,-57.6792,7.96,89,44,1.96,AR,1683871677
550,guano,-1.5833,-78.6333,9.72,94,100,1.26,EC,1683871678
551,polyarnyy,69.1989,33.4478,3.97,99,100,4.96,RU,1683871678
552,altdorf,49.3875,11.3572,10.18,91,100,3.75,DE,1683871679
553,muroto-misakicho,33.2833,134.15,18.43,52,73,2.88,JP,1683871679
554,cadale,2.7603,46.3222,28.52,72,76,8.16,SO,1683871679
555,grootfontein,-19.5667,18.1167,16.62,36,39,0.65,NA,1683871680
556,rocha,-34.4833,-54.3333,12.73,63,89,1.25,UY,1683871071
557,jose maria morelos,23.3952,-103.8984,11.05,40,5,2.82,MX,1683871680
558,sassandra,4.95,-6.0833,26.38,87,100,1.74,CI,1683871681
559,sao jose da coroa grande,-8.8978,-35.1478,24.84,82,36,2.14,BR,1683871681
560,ternate,0.8,127.4,28.93,76,90,3.51,ID,1683871682
561,laihia,62.9761,22.0114,15.75,58,0,3.09,FI,1683871682
562,elkins,38.9259,-79.8467,14.7,68,0,0.0,US,1683871684
563,cuencame de ceniceros,24.8711,-103.6964,20.25,16,28,4.61,MX,1683871684
564,shakawe,-18.3667,21.85,16.97,37,0,1.93,BW,1683871685
565,corner brook,48.9667,-57.9484,-2.91,80,10,1.79,CA,1683871283
566,shalkar,47.8288,59.6258,25.47,34,21,3.86,KZ,1683871686
567,tocache,-8.1842,-76.5125,19.79,99,54,0.08,PE,1683871686
568,bodo,67.28,14.405,8.02,92,75,6.17,NO,1683871687
569,boca do acre,-8.7522,-67.3978,21.77,99,99,0.94,BR,1683871688
570,strezhevoy,60.7333,77.5889,1.73,28,67,4.61,RU,1683871689
571,nogliki,51.8333,143.1667,5.84,70,27,2.83,RU,1683871690
572,ingeniero jacobacci,-41.3427,-69.5448,10.16,63,90,4.19,AR,1683871691
573,kidal,18.4411,1.4078,30.85,12,100,4.63,ML,1683871691
574,enoch,37.7733,-113.0244,11.93,53,0,0.0,US,1683871691
575,suarez,2.954,-76.6964,19.9,96,93,0.46,CO,1683871692
576,port lincoln,-34.7333,135.8667,15.9,59,23,4.3,AU,1683871692
577,puerto gaitan,4.3133,-72.0816,23.39,89,64,2.26,CO,1683871693
578,thunder bay,48.4001,-89.3168,9.99,93,0,2.06,CA,1683871492
579,banjar,-8.19,114.9675,29.1,78,47,1.14,ID,1683871694
